{"101": {
  "id": "101",
  "name": "Shii",
  "location": "Dadar",
  "address": "jjj",
  "pincode": "999999",
  "phone": "9999999999"
},"101": {
  "id": "101",
  "name": "Shivam",
  "location": "Dadar",
  "address": "iiiii",
  "pincode": "212122",
  "phone": "2222222222"
},"101": {
  "id": "101",
  "name": "SHivbam",
  "location": "Dadar",
  "address": "prabhdevi",
  "pincode": "400025",
  "phone": "7506118685"
},"101": {
  "id": "101",
  "name": "Shivam",
  "location": "Panvel",
  "address": "Add",
  "pincode": "222222",
  "phone": "1099999999"
},"101": {
  "id": "101",
  "name": "Shivam",
  "location": "Dadar",
  "address": "prabhdevi",
  "pincode": "999999",
  "phone": "9999999999"
},"102": {
  "id": "102",
  "name": "Saad",
  "location": "Thane",
  "address": "dombivali",
  "pincode": "222222",
  "phone": "3333333333"
},"101": {
  "id": "101",
  "name": "Shiavm,",
  "location": "Panvel",
  "address": "hjdhdhdhd",
  "pincode": "777782",
  "phone": "7878787878"
},"101": {
  "id": "101",
  "name": "Shiavm",
  "location": "Thane",
  "address": "adddress123",
  "pincode": "999999",
  "phone": "9999999999"
},}